[{"volcano_name": "Fagradalsfjall", "volcano_name_si": "Fagradalsfjall", "volcano_id": "371032", "latitude": 63.895, "longitude": -22.258, "status": "green", "publication_date": "2023-08-16T11:44:35.261605Z", "end_date": null, "source_of_information": "IMO"}, {"volcano_name": "Eldey", "volcano_name_si": "Reykjanes", "volcano_id": "371022", "latitude": 63.733, "longitude": -23.0, "status": "green", "publication_date": "2023-07-11T16:40:08.713479Z", "end_date": null, "source_of_information": "IMO"}, {"volcano_name": "Katla", "volcano_name_si": "Katla", "volcano_id": "372030", "latitude": 63.633, "longitude": -19.117, "status": "green", "publication_date": "2023-05-05T11:04:51.372791Z", "end_date": null, "source_of_information": "IMO"}, {"volcano_name": "Gr\u00edmsv\u00f6tn", "volcano_name_si": "Grimsvotn", "volcano_id": "373010", "latitude": 64.417, "longitude": -17.333, "status": "green", "publication_date": "2022-11-09T07:57:50.154155Z", "end_date": null, "source_of_information": "IMO"}, {"volcano_name": "Askja", "volcano_name_si": "Askja", "volcano_id": "373060", "latitude": 65.05, "longitude": -16.783, "status": "green", "publication_date": "2022-11-09T07:54:42.992339Z", "end_date": null, "source_of_information": "IMO"}, {"volcano_name": "Kr\u00fdsuv\u00edk", "volcano_name_si": "Krysuvik", "volcano_id": "371030", "latitude": 63.917, "longitude": -22.067, "status": "green", "publication_date": "2022-09-15T15:29:52.108190Z", "end_date": null, "source_of_information": "IMO"}, {"volcano_name": "Reykjanes", "volcano_name_si": "Reykjanes", "volcano_id": "371020", "latitude": 63.817, "longitude": -22.717, "status": "green", "publication_date": "2022-06-02T11:49:38.513240Z", "end_date": null, "source_of_information": "IMO"}, {"volcano_name": "Helgrindur", "volcano_name_si": "Helgrindur", "volcano_id": "370020", "latitude": 64.867, "longitude": -23.25, "status": "green", "publication_date": "2020-11-12T14:36:08.129673Z", "end_date": null, "source_of_information": "IMO"}, {"volcano_name": "Sn\u00e6fellsj\u00f6kull", "volcano_name_si": "Snaefellsjokull", "volcano_id": "370010", "latitude": 64.8, "longitude": -23.783, "status": "green", "publication_date": "2020-11-12T14:33:34.946495Z", "end_date": null, "source_of_information": "IMO"}, {"volcano_name": "Fremrin\u00e1mar", "volcano_name_si": "Fremrinamar", "volcano_id": "373070", "latitude": 65.433, "longitude": -16.667, "status": "green", "publication_date": "2020-10-28T14:38:01.123294Z", "end_date": null, "source_of_information": "IMO"}, {"volcano_name": "\u00d6r\u00e6faj\u00f6kull", "volcano_name_si": "Oraefajokull", "volcano_id": "374010", "latitude": 64.0, "longitude": -16.65, "status": "green", "publication_date": "2018-05-04T11:24:22.418449Z", "end_date": null, "source_of_information": "IMO"}, {"volcano_name": "Hofsj\u00f6kull", "volcano_name_si": "Hofsjokull", "volcano_id": "371090", "latitude": 64.8, "longitude": -18.9, "status": "green", "publication_date": "2015-03-01T00:00:00Z", "end_date": null, "source_of_information": "IMO"}, {"volcano_name": "Hr\u00f3mundartindur", "volcano_name_si": "Hromundartindur", "volcano_id": "371051", "latitude": 64.067, "longitude": -21.2, "status": "green", "publication_date": "2015-03-01T00:00:00Z", "end_date": null, "source_of_information": "IMO"}, {"volcano_name": "Esjufj\u00f6ll", "volcano_name_si": "Esjufjoll", "volcano_id": "374020", "latitude": 64.283, "longitude": -16.583, "status": "green", "publication_date": "2015-03-01T00:00:00Z", "end_date": null, "source_of_information": "IMO"}, {"volcano_name": "Krafla", "volcano_name_si": "Krafla", "volcano_id": "373080", "latitude": 65.717, "longitude": -16.783, "status": "green", "publication_date": "2015-03-01T00:00:00Z", "end_date": null, "source_of_information": "IMO"}, {"volcano_name": "Kverkfj\u00f6ll", "volcano_name_si": "Kverkfjoll", "volcano_id": "373050", "latitude": 64.65, "longitude": -16.667, "status": "green", "publication_date": "2015-03-01T00:00:00Z", "end_date": null, "source_of_information": "IMO"}, {"volcano_name": "Lj\u00f3sufj\u00f6ll", "volcano_name_si": "Ljosufjoll", "volcano_id": "370030", "latitude": 64.917, "longitude": -22.633, "status": "green", "publication_date": "2015-03-01T00:00:00Z", "end_date": null, "source_of_information": "IMO"}, {"volcano_name": "Langj\u00f6kull", "volcano_name_si": "Langjokull", "volcano_id": "371080", "latitude": 64.85, "longitude": -19.783, "status": "green", "publication_date": "2015-03-01T00:00:00Z", "end_date": null, "source_of_information": "IMO"}, {"volcano_name": "Prestahn\u00fakur", "volcano_name_si": "Prestahnukur", "volcano_id": "371070", "latitude": 64.6, "longitude": -20.633, "status": "green", "publication_date": "2015-03-01T00:00:00Z", "end_date": null, "source_of_information": "IMO"}, {"volcano_name": "Sn\u00e6fell", "volcano_name_si": "Snaefell", "volcano_id": "374801", "latitude": 64.8, "longitude": -15.567, "status": "green", "publication_date": "2015-03-01T00:00:00Z", "end_date": null, "source_of_information": "IMO"}, {"volcano_name": "Tindfjallaj\u00f6kull", "volcano_name_si": "Tindfjallajokull", "volcano_id": "372040", "latitude": 63.783, "longitude": -19.567, "status": "green", "publication_date": "2015-03-01T00:00:00Z", "end_date": null, "source_of_information": "IMO"}, {"volcano_name": "Torfaj\u00f6kull", "volcano_name_si": "Torfajokull", "volcano_id": "372050", "latitude": 63.933, "longitude": -19.1, "status": "green", "publication_date": "2015-03-01T00:00:00Z", "end_date": null, "source_of_information": "IMO"}, {"volcano_name": "Tungnafellsj\u00f6kull", "volcano_name_si": "Tungnafellsjokull", "volcano_id": "373040", "latitude": 64.75, "longitude": -17.917, "status": "green", "publication_date": "2015-03-01T00:00:00Z", "end_date": null, "source_of_information": "IMO"}, {"volcano_name": "Vestmannaeyjar", "volcano_name_si": "Vestmannaeyjar", "volcano_id": "372010", "latitude": 63.417, "longitude": -20.35, "status": "green", "publication_date": "2015-03-01T00:00:00Z", "end_date": null, "source_of_information": "IMO"}, {"volcano_name": "\u00deeistareykir", "volcano_name_si": "Theistareykir", "volcano_id": "373090", "latitude": 65.883, "longitude": -16.967, "status": "green", "publication_date": "2015-03-01T00:00:00Z", "end_date": null, "source_of_information": "IMO"}, {"volcano_name": "\u00de\u00f3r\u00f0arhyrna", "volcano_name_si": "Grimsvotn", "volcano_id": "373012", "latitude": 64.267, "longitude": -17.617, "status": "green", "publication_date": "2015-03-01T00:00:00Z", "end_date": null, "source_of_information": "IMO"}, {"volcano_name": "Brennisteinsfj\u00f6ll", "volcano_name_si": "Brennisteinsfjoll", "volcano_id": "371040", "latitude": 63.95, "longitude": -21.75, "status": "green", "publication_date": "2015-03-01T00:00:00Z", "end_date": null, "source_of_information": "IMO"}, {"volcano_name": "B\u00e1r\u00f0arbunga", "volcano_name_si": "Bardarbunga", "volcano_id": "373030", "latitude": 64.633, "longitude": -17.517, "status": "green", "publication_date": "2015-03-01T00:00:00Z", "end_date": null, "source_of_information": "IMO"}, {"volcano_name": "Gr\u00edmsnes", "volcano_name_si": "Grimsnes", "volcano_id": "371060", "latitude": 64.05, "longitude": -20.883, "status": "green", "publication_date": "2015-03-01T00:00:00Z", "end_date": null, "source_of_information": "IMO"}, {"volcano_name": "Eyjafjallaj\u00f6kull", "volcano_name_si": "Eyjafjallajokull", "volcano_id": "372020", "latitude": 63.628, "longitude": -19.625, "status": "green", "publication_date": "2015-03-01T00:00:00Z", "end_date": null, "source_of_information": "IMO"}, {"volcano_name": "Hei\u00f0arspor\u00f0ar", "volcano_name_si": "Heidarspordar ", "volcano_id": "373082", "latitude": 65.583, "longitude": -16.817, "status": "green", "publication_date": "2015-03-01T00:00:00Z", "end_date": null, "source_of_information": "IMO"}, {"volcano_name": "Hekla", "volcano_name_si": "Hekla", "volcano_id": "372070", "latitude": 63.992, "longitude": -19.667, "status": "green", "publication_date": "2015-03-01T00:00:00Z", "end_date": null, "source_of_information": "IMO"}, {"volcano_name": "Hengill", "volcano_name_si": "Hengill", "volcano_id": "371050", "latitude": 64.083, "longitude": -21.3, "status": "green", "publication_date": "2015-03-01T00:00:00Z", "end_date": null, "source_of_information": "IMO"}]